{
    "type": "FeatureCollection", 
    "name": "shops",
    "features": [
        {"type": "Feature", "geometry": {"type": "Point", "coordinates": [-73.977766, 40.68061]}, "properties": {"Name": "George's 2 Barber Shop", "Address": "78 5th Ave, Brooklyn, NY ", "Rating": 4.9}}, 
        {"type": "Feature", "geometry": {"type": "Point", "coordinates": [-73.983521, 40.688593]}, "properties": {"Name": "Long & Short Barber Co. (Downtown Brooklyn)", "Address": "278 Livingston St, Brooklyn, NY ", "Rating": 4.9}}, 
        {"type": "Feature", "geometry": {"type": "Point", "coordinates": [-73.957003, 40.673747]}, "properties": {"Name": "Jack\u2019s Barbershop", "Address": "728 Franklin Ave, Brooklyn, NY ", "Rating": 4.8}}, 
        {"type": "Feature", "geometry": {"type": "Point", "coordinates": [-73.93288, 40.702976]}, "properties": {"Name": "The Stepping Razor Barbershop", "Address": "952 Flushing Ave, Brooklyn, NY ", "Rating": 4.6}}, 
        {"type": "Feature", "geometry": {"type": "Point", "coordinates": [-73.963065, 40.673371]}, "properties": {"Name": "Jack\u2019s Barbershop", "Address": "820 Washington Ave, Brooklyn, NY ", "Rating": 4.9}}, 
        {"type": "Feature", "geometry": {"type": "Point", "coordinates": [-73.983556, 40.671965]}, "properties": {"Name": "Elegant Barber Shop", "Address": "310 4th St, Brooklyn, NY ", "Rating": 4.9}}, 
        {"type": "Feature", "geometry": {"type": "Point", "coordinates": [-73.995069, 40.694882]}, "properties": {"Name": "Cutting Edge Barbers", "Address": "110 Montague St, Brooklyn, NY ", "Rating": 4.8}}, 
        {"type": "Feature", "geometry": {"type": "Point", "coordinates": [-73.959616, 40.687627]}, "properties": {"Name": "Outsiders", "Address": "393 Classon Ave, Brooklyn, NY ", "Rating": 4.8}}, 
        {"type": "Feature", "geometry": {"type": "Point", "coordinates": [-73.987089, 40.668003]}, "properties": {"Name": "George's Barber Shop", "Address": "475 5th Ave, Brooklyn, NY ", "Rating": 4.9}}, 
        {"type": "Feature", "geometry": {"type": "Point", "coordinates": [-73.992942, 40.693429]}, "properties": {"Name": "Clinton Street Barber Shop", "Address": "104 Clinton St, Brooklyn, NY ", "Rating": 4.5}}, 
        {"type": "Feature", "geometry": {"type": "Point", "coordinates": [-73.968742, 40.677414]}, "properties": {"Name": "The Vanderbilt Barber", "Address": "649 Vanderbilt Ave, Brooklyn, NY ", "Rating": 4.9}}, 
        {"type": "Feature", "geometry": {"type": "Point", "coordinates": [-73.986469, 40.687732]}, "properties": {"Name": "Clever Barber Brooklyn", "Address": "355 Atlantic Ave, Brooklyn, NY ", "Rating": 4.7}}, 
        {"type": "Feature", "geometry": {"type": "Point", "coordinates": [-73.957339, 40.672018]}, "properties": {"Name": "Sheer Madness Barber Shop and Salon", "Address": "785 Franklin Ave, Brooklyn, NY ", "Rating": 4.8}}, 
        {"type": "Feature", "geometry": {"type": "Point", "coordinates": [-73.953609, 40.715517]}, "properties": {"Name": "Manetamed Barber by Hairrari- Williamsburg", "Address": "41 Havemeyer St, Brooklyn, NY ", "Rating": 4.7}}, 
        {"type": "Feature", "geometry": {"type": "Point", "coordinates": [-73.926099, 40.705525]}, "properties": {"Name": "Black Rabbit Barbershop", "Address": "444 Melrose St, Brooklyn, NY ", "Rating": 4.7}}, 
        {"type": "Feature", "geometry": {"type": "Point", "coordinates": [-73.926099, 40.705525]}, "properties": {"Name": "Black Rabbit Barbershop", "Address": "444 Melrose St, Brooklyn, NY ", "Rating": 4.7}}, 
        {"type": "Feature", "geometry": {"type": "Point", "coordinates": [-73.98249, 40.686516]}, "properties": {"Name": "BARBER'S PHILOSOPHY", "Address": "74 Nevins St, Brooklyn, NY ", "Rating": 4.8}}, 
        {"type": "Feature", "geometry": {"type": "Point", "coordinates": [-73.957486, 40.730099]}, "properties": {"Name": "Land Of Barbers Hair Salon", "Address": "146 Franklin St, Brooklyn, NY ", "Rating": 4.8}}, 
        {"type": "Feature", "geometry": {"type": "Point", "coordinates": [-73.957486, 40.730099]}, "properties": {"Name": "Land Of Barbers Hair Salon", "Address": "146 Franklin St, Brooklyn, NY ", "Rating": 4.8}}, 
        {"type": "Feature", "geometry": {"type": "Point", "coordinates": [-73.950454, 40.707919]}, "properties": {"Name": "Men's Best Haircut", "Address": "252 Union Ave, Brooklyn, NY ", "Rating": 4.7}}, 
        {"type": "Feature", "geometry": {"type": "Point", "coordinates": [-73.993698, 40.687268]}, "properties": {"Name": "David's Barbershop", "Address": "194 Court St, Brooklyn, NY ", "Rating": 4.8}}, 
        {"type": "Feature", "geometry": {"type": "Point", "coordinates": [-73.987495, 40.70297]}, "properties": {"Name": "Barber on Pearl", "Address": "57a Pearl St, Brooklyn, NY ", "Rating": 4.7}}, 
        {"type": "Feature", "geometry": {"type": "Point", "coordinates": [-73.991338, 40.690777]}, "properties": {"Name": "Classic Barber shop 4 NYC", "Address": "60 Schermerhorn St, Brooklyn, NY ", "Rating": 4.9}}, 
        {"type": "Feature", "geometry": {"type": "Point", "coordinates": [-73.932785, 40.697749]}, "properties": {"Name": "Adrian Fanus Grooming", "Address": "651 Bushwick Ave, Brooklyn, NY ", "Rating": 4.9}}, 
        {"type": "Feature", "geometry": {"type": "Point", "coordinates": [-73.97914, 40.678134]}, "properties": {"Name": "Benny's BarberShop", "Address": "143 5th Ave, Brooklyn, NY ", "Rating": 4.9}}, 
        {"type": "Feature", "geometry": {"type": "Point", "coordinates": [-73.976472, 40.687374]}, "properties": {"Name": "George's Barber Shop", "Address": "89 Fort Greene Pl, Brooklyn, NY ", "Rating": 4.9}}, 
        {"type": "Feature", "geometry": {"type": "Point", "coordinates": [-73.957554, 40.711788]}, "properties": {"Name": "Filthy Rich Barbershop", "Address": "148 Havemeyer St, Brooklyn, NY ", "Rating": 4.8}}, 
        {"type": "Feature", "geometry": {"type": "Point", "coordinates": [-73.940164, 40.708696]}, "properties": {"Name": "Hairrari Barber- Bushwick", "Address": "206 Bushwick Ave, Brooklyn, NY ", "Rating": 4.9}}, 
        {"type": "Feature", "geometry": {"type": "Point", "coordinates": [-73.960905, 40.672125]}, "properties": {"Name": "George's Barber Shop", "Address": "837 Classon Ave, Brooklyn, NY ", "Rating": 5.0}}, 
        {"type": "Feature", "geometry": {"type": "Point", "coordinates": [-73.966466, 40.693279]}, "properties": {"Name": "Miracles Hair Shop", "Address": "470 Myrtle Ave, Brooklyn, NY ", "Rating": 4.6}}, 
        {"type": "Feature", "geometry": {"type": "Point", "coordinates": [-73.984634, 40.663006]}, "properties": {"Name": "Elegance Style Barbershop Brooklyn", "Address": "445 7th Ave, Brooklyn, NY ", "Rating": 4.8}}, 
        {"type": "Feature", "geometry": {"type": "Point", "coordinates": [-73.940604, 40.692724]}, "properties": {"Name": "Heads Up Barbershop", "Address": "901 Dekalb Ave, Brooklyn, NY ", "Rating": 4.6}}, 
        {"type": "Feature", "geometry": {"type": "Point", "coordinates": [-73.917597, 40.703063]}, "properties": {"Name": "Troy\u2019s Barber Shop", "Address": "Entrance on, Cornelia Street, 820 Wyckoff Ave, Brooklyn, NY ", "Rating": 4.9}}, 
        {"type": "Feature", "geometry": {"type": "Point", "coordinates": [-73.944404, 40.715643]}, "properties": {"Name": "Thee Brooklyn Barber", "Address": "376 Graham Ave, Brooklyn, NY ", "Rating": 4.7}}, 
        {"type": "Feature", "geometry": {"type": "Point", "coordinates": [-73.997343, 40.679036]}, "properties": {"Name": "Joe's Barbershop", "Address": "417 Court St, Brooklyn, NY ", "Rating": 4.9}}, 
        {"type": "Feature", "geometry": {"type": "Point", "coordinates": [-73.962316, 40.608607]}, "properties": {"Name": "Members Only Barber Shop", "Address": "1994 Coney Island Ave, Brooklyn, NY ", "Rating": 4.7}},
         {"type": "Feature", "geometry": {"type": "Point", "coordinates": [-73.987699, 40.691738]}, "properties": {"Name": "Fulton Barbershop", "Address": "435 Fulton St, Brooklyn, NY ", "Rating": 4.9}}, 
         {"type": "Feature", "geometry": {"type": "Point", "coordinates": [-73.984391, 40.68775]}, "properties": {"Name": "Master Class Barber NYC", "Address": "66 Bond St, Brooklyn, NY ", "Rating": 4.8}}, 
         {"type": "Feature", "geometry": {"type": "Point", "coordinates": [-74.012884, 40.64678]}, "properties": {"Name": "Sunset all star barber shop", "Address": "369 50th St, Brooklyn, NY ", "Rating": 5.0}}, 
         {"type": "Feature", "geometry": {"type": "Point", "coordinates": [-73.966306, 40.683484]}, "properties": {"Name": "3 Suns Barbershop", "Address": "923 Fulton St #3suns, Brooklyn, NY ", "Rating": 4.8}}, 
         {"type": "Feature", "geometry": {"type": "Point", "coordinates": [-73.968673, 40.710373]}, "properties": {"Name": "Kent Avenue Barber Shop", "Address": "416 Kent Ave Ground Floor, Brooklyn, NY ", "Rating": 5.0}}, 
         {"type": "Feature", "geometry": {"type": "Point", "coordinates": [-73.921949, 40.698693]}, "properties": {"Name": "Metro Barber Shop", "Address": "227 Wilson Ave, Brooklyn, NY ", "Rating": 4.2}}, 
         {"type": "Feature", "geometry": {"type": "Point", "coordinates": [-73.977223, 40.671888]}, "properties": {"Name": "Master Class Barber NYC", "Address": "169 7th Ave, Brooklyn, NY ", "Rating": 4.9}}, 
         {"type": "Feature", "geometry": {"type": "Point", "coordinates": [-73.96033, 40.681979]}, "properties": {"Name": "Hundred Grand Barbershop", "Address": "1012 Fulton St, Brooklyn, NY ", "Rating": 4.7}}, 
         {"type": "Feature", "geometry": {"type": "Point", "coordinates": [-73.944534, 40.615612]}, "properties": {"Name": "Joe's Barber Shop", "Address": "2815 Nostrand Ave, Brooklyn, NY ", "Rating": 4.8}}, 
         {"type": "Feature", "geometry": {"type": "Point", "coordinates": [-73.942026, 40.703191]}, "properties": {"Name": "Lugo Barber Shop", "Address": "77 Varet St #4033, Brooklyn, NY ", "Rating": 4.8}}, 
         {"type": "Feature", "geometry": {"type": "Point", "coordinates": [-73.961947, 40.714646]}, "properties": {"Name": "Otis & Finn Barbershop", "Address": "154 Grand St Store #1, Brooklyn, NY ", "Rating": 4.9}}, 
         {"type": "Feature", "geometry": {"type": "Point", "coordinates": [-73.974174, 40.635656]}, "properties": {"Name": "VIP Barbers NYC", "Address": "672 E 5th St, Brooklyn, NY ", "Rating": 4.7}}, 
         {"type": "Feature", "geometry": {"type": "Point", "coordinates": [-73.974151, 40.675667]}, "properties": {"Name": "Resident Barber", "Address": "169 Lincoln Pl, Brooklyn, NY ", "Rating": 5.0}}, 
         {"type": "Feature", "geometry": {"type": "Point", "coordinates": [-73.982325, 40.69227]}, "properties": {"Name": "Mr. Barber", "Address": "275 Flatbush Ave Ext, Brooklyn, NY ", "Rating": 4.7}}, 
         {"type": "Feature", "geometry": {"type": "Point", "coordinates": [-73.973641, 40.686123]}, "properties": {"Name": "Chaplin's Barber Shop", "Address": "777 Fulton St, Brooklyn, NY ", "Rating": 4.9}},
          {"type": "Feature", "geometry": {"type": "Point", "coordinates": [-73.951427, 40.713814]}, "properties": {"Name": "Model Barbers", "Address": "452 Union Ave #3427, Brooklyn, NY ", "Rating": 4.8}}, 
          {"type": "Feature", "geometry": {"type": "Point", "coordinates": [-73.951324, 40.725701]}, "properties": {"Name": "HAIRBOSS BARBERSHOP", "Address": "99 Norman Ave, Brooklyn, NY ", "Rating": 4.9}}, 
          {"type": "Feature", "geometry": {"type": "Point", "coordinates": [-73.997378, 40.622234]}, "properties": {"Name": "Ruthie\u2019s Neighborhood Barber Shop", "Address": "66A St Marks Ave, Brooklyn, NY ", "Rating": 4.9}}, 
          {"type": "Feature", "geometry": {"type": "Point", "coordinates": [-73.956174, 40.714054]}, "properties": {"Name": "Persons of Interest Barbershop", "Address": "84 Havemeyer St, Brooklyn, NY ", "Rating": 4.6}}, 
          {"type": "Feature", "geometry": {"type": "Point", "coordinates": [-73.910523, 40.678381]}, "properties": {"Name": "House of Skillz Barber Shop Faze 2", "Address": "2063 Fulton St, Brooklyn, NY ", "Rating": 4.4}}, 
          {"type": "Feature", "geometry": {"type": "Point", "coordinates": [-73.954522, 40.708718]}, "properties": {"Name": "J & L Barber Shop", "Address": "336 S 4th St, Brooklyn, NY ", "Rating": 4.6}}, 
          {"type": "Feature", "geometry": {"type": "Point", "coordinates": [-73.96503, 40.681429]}, "properties": {"Name": "Liv's Barbershop", "Address": "859 Atlantic Ave, Brooklyn, NY ", "Rating": 5.0}}, 
          {"type": "Feature", "geometry": {"type": "Point", "coordinates": [-73.960388, 40.657113]}, "properties": {"Name": "Eastcoast Barbers", "Address": "662 Flatbush Ave, Brooklyn, NY ", "Rating": 4.7}}, 
          {"type": "Feature", "geometry": {"type": "Point", "coordinates": [-73.986483, 40.692108]}, "properties": {"Name": "Metro Tech Barber Shop ny", "Address": "60 Willoughby St, Brooklyn, NY ", "Rating": 4.3}}, 
          {"type": "Feature", "geometry": {"type": "Point", "coordinates": [-73.915212, 40.661736]}, "properties": {"Name": "Brooklyn Finest Barbershop", "Address": "81 Livonia Ave, Brooklyn, NY ", "Rating": 4.6}}, 
          {"type": "Feature", "geometry": {"type": "Point", "coordinates": [-73.974683, 40.686812]}, "properties": {"Name": "Persons of Interest Barbershop", "Address": "88 S Portland Ave, Brooklyn, NY ", "Rating": 4.6}}, 
          {"type": "Feature", "geometry": {"type": "Point", "coordinates": [-73.981473, 40.659298]}, "properties": {"Name": "Artisan Barber Shop", "Address": "244 Prospect Park W, Brooklyn, NY ", "Rating": 4.8}}, 
          {"type": "Feature", "geometry": {"type": "Point", "coordinates": [-73.927122, 40.679046]}, "properties": {"Name": "Alex Barber Shop", "Address": "1818 Fulton St, Brooklyn, NY ", "Rating": 4.5}}, 
          {"type": "Feature", "geometry": {"type": "Point", "coordinates": [-73.9871, 40.598216]}, "properties": {"Name": "City Cuts barber shop", "Address": "8518 25th Ave, Brooklyn, NY ", "Rating": 4.7}}, 
          {"type": "Feature", "geometry": {"type": "Point", "coordinates": [-73.960266, 40.719827]}, "properties": {"Name": "Wythe Barber Williamsburg", "Address": "158 Wythe Ave, Brooklyn, NY ", "Rating": 4.8}}, 
          {"type": "Feature", "geometry": {"type": "Point", "coordinates": [-73.994283, 40.690718]}, "properties": {"Name": "Mr. Right Barbershop", "Address": "200 Clinton St, Brooklyn, NY ", "Rating": 4.4}}, 
          {"type": "Feature", "geometry": {"type": "Point", "coordinates": [-73.947932, 40.724823]}, "properties": {"Name": "Th\u0435\u0435 Brooklyn Barb\u0435r", "Address": "141 Nassau Ave, Brooklyn, NY ", "Rating": 5.0}}, 
          {"type": "Feature", "geometry": {"type": "Point", "coordinates": [-73.931518, 40.694589]}, "properties": {"Name": "The Great Commission Barbershop", "Address": "1070 Broadway, Brooklyn, NY ", "Rating": 4.5}}, 
          {"type": "Feature", "geometry": {"type": "Point", "coordinates": [-73.968949, 40.677996]}, "properties": {"Name": "Prospect Cut and Shave", "Address": "616 Vanderbilt Ave, Brooklyn, NY ", "Rating": 4.9}}, 
          {"type": "Feature", "geometry": {"type": "Point", "coordinates": [-73.914016, 40.671623]}, "properties": {"Name": "DL Pro Cuts", "Address": "377 Thomas S Boyland St, Brooklyn, NY ", "Rating": 4.6}}, 
          {"type": "Feature", "geometry": {"type": "Point", "coordinates": [-73.947753, 40.722799]}, "properties": {"Name": "THE 248 BARBERSHOP", "Address": "248 Driggs Ave, Brooklyn, NY ", "Rating": 5.0}}, 
          {"type": "Feature", "geometry": {"type": "Point", "coordinates": [-73.952185, 40.709546]}, "properties": {"Name": "Uraga Barber Shop Brooklyn", "Address": "384 S 2nd St, Brooklyn, NY ", "Rating": 5.0}}, 
          {"type": "Feature", "geometry": {"type": "Point", "coordinates": [-73.981241, 40.685701]}, "properties": {"Name": "Good Guy Barber", "Address": "499 Atlantic Ave, Brooklyn, NY ", "Rating": 4.8}}, 
          {"type": "Feature", "geometry": {"type": "Point", "coordinates": [-73.973673, 40.685871]}, "properties": {"Name": "On Point Barber Salon @708a Fulton st Brooklyn NY 11217", "Address": "708A Fulton St, Brooklyn, NY ", "Rating": 4.3}}, 
          {"type": "Feature", "geometry": {"type": "Point", "coordinates": [-73.96289, 40.649177]}, "properties": {"Name": "Bani Barbershop", "Address": "83 E 18th St, Brooklyn, NY ", "Rating": 4.6}}, 
          {"type": "Feature", "geometry": {"type": "Point", "coordinates": [-73.954866, 40.732911]}, "properties": {"Name": "HEADRUSH BARBERSHOP", "Address": "993 Manhattan Ave, Brooklyn, NY ", "Rating": 4.7}}, 
          {"type": "Feature", "geometry": {"type": "Point", "coordinates": [-73.935898, 40.697192]}, "properties": {"Name": "Hector's Barber Shop", "Address": "924 Broadway, Brooklyn, NY ", "Rating": 4.6}}, 
          {"type": "Feature", "geometry": {"type": "Point", "coordinates": [-73.999438, 40.683744]}, "properties": {"Name": "Lana's Barber Shop", "Address": "523 Henry St, Brooklyn, NY ", "Rating": 4.7}}, 
          {"type": "Feature", "geometry": {"type": "Point", "coordinates": [-73.999438, 40.683744]}, "properties": {"Name": "Lana's Barber Shop", "Address": "523 Henry St, Brooklyn, NY ", "Rating": 4.7}}, 
          {"type": "Feature", "geometry": {"type": "Point", "coordinates": [-73.975764, 40.631225]}, "properties": {"Name": "777 Barbershop", "Address": "4225 18th Ave, Brooklyn, NY ", "Rating": 4.8}}, 
          {"type": "Feature", "geometry": {"type": "Point", "coordinates": [-73.993675, 40.681793]}, "properties": {"Name": "Persons of Interest Barbershop", "Address": "299 Smith St, Brooklyn, NY ", "Rating": 4.7}}, 
          {"type": "Feature", "geometry": {"type": "Point", "coordinates": [-73.981742, 40.666465]}, "properties": {"Name": "quality cuts on slope", "Address": "339 7th Ave, Brooklyn, NY ", "Rating": 4.7}}, 
          {"type": "Feature", "geometry": {"type": "Point", "coordinates": [-73.947877, 40.707015]}, "properties": {"Name": "HellRazor barbershop", "Address": "53 Montrose Ave, Brooklyn, NY ", "Rating": 4.9}}, 
          {"type": "Feature", "geometry": {"type": "Point", "coordinates": [-74.0047, 40.650048]}, "properties": {"Name": "F.R.G. Barbershop", "Address": "509 41st St, Brooklyn, NY ", "Rating": 4.7}}, 
          {"type": "Feature", "geometry": {"type": "Point", "coordinates": [-73.925539, 40.700464]}, "properties": {"Name": "The Goal Barbershop", "Address": "146 Wilson Ave, Brooklyn, NY ", "Rating": 4.9}}, 
          {"type": "Feature", "geometry": {"type": "Point", "coordinates": [-73.926679, 40.659514]}, "properties": {"Name": "javy flow barbersshop", "Address": "986 Winthrop St, Brooklyn, NY ", "Rating": 4.7}}, 
          {"type": "Feature", "geometry": {"type": "Point", "coordinates": [-73.950111, 40.72236]}, "properties": {"Name": "COTTER BARBER", "Address": "563 Manhattan Ave, Brooklyn, NY ", "Rating": 4.6}}, 
          {"type": "Feature", "geometry": {"type": "Point", "coordinates": [-73.965514, 40.62552]}, "properties": {"Name": "The Gentleman Barbershop cut & shave", "Address": "1318 Coney Island Ave, Brooklyn, NY ", "Rating": 5.0}}, 
          {"type": "Feature", "geometry": {"type": "Point", "coordinates": [-73.95998, 40.608387]}, "properties": {"Name": "Vitaliy VA Barber shop", "Address": "1673 E 13th St, Brooklyn, NY ", "Rating": 4.7}}, 
          {"type": "Feature", "geometry": {"type": "Point", "coordinates": [-73.986731, 40.582831]}, "properties": {"Name": "Kings Barber Shop", "Address": "123 Bay 53rd St, Brooklyn, NY ", "Rating": 4.6}}, 
          {"type": "Feature", "geometry": {"type": "Point", "coordinates": [-73.916206, 40.619833]}, "properties": {"Name": "Avenue N Barbershop", "Address": "6335 Avenue N, Brooklyn, NY ", "Rating": 4.5}}, 
          {"type": "Feature", "geometry": {"type": "Point", "coordinates": [-73.924091, 40.66432]}, "properties": {"Name": "Andros beauty and barber studio", "Address": "1087 Rutland Rd, Brooklyn, NY ", "Rating": 5.0}}, 
          {"type": "Feature", "geometry": {"type": "Point", "coordinates": [-73.940282, 40.591008]}, "properties": {"Name": "BIGG MIKE\u2019S BARBERSHOP", "Address": "3810A Nostrand Ave, Brooklyn, NY ", "Rating": 4.7}}, 
          {"type": "Feature", "geometry": {"type": "Point", "coordinates": [-74.016736, 40.642188]}, "properties": {"Name": "Mega Barber Shop", "Address": "5711 4th Ave, Brooklyn, NY ", "Rating": 4.8}}, 
          {"type": "Feature", "geometry": {"type": "Point", "coordinates": [-73.930234, 40.676425]}, "properties": {"Name": "Camera Ready Kutz, Inc.", "Address": "73 Utica Ave, Brooklyn, NY ", "Rating": 4.8}}, 
          {"type": "Feature", "geometry": {"type": "Point", "coordinates": [-73.965954, 40.606144]}, "properties": {"Name": "Imanuel Barber Shop", "Address": "623 Kings Hwy, Brooklyn, NY ", "Rating": 4.8}}
          ]
        }